date,latitude,longitude,name,description,country,days_stayed
2023-01-05,48.8566,2.3522,Paris,Visited the Eiffel Tower and Louvre,France,5
2023-01-12,51.5074,-0.1278,London,Explored museums and historical sites,United Kingdom,4
2023-02-20,35.6762,139.6503,Tokyo,Amazing food and culture,Japan,7
2023-03-15,-33.8688,151.2093,Sydney,Opera House and beaches,Australia,6
2023-04-10,40.4168,-3.7038,Madrid,Art galleries and tapas,Spain,3
2023-05-22,41.9028,12.4964,Rome,Ancient history tour,Italy,5
2023-07-08,52.5200,13.4050,Berlin,Modern history and nightlife,Germany,4
